header: 
  seq: 16763
  stamp: 
    secs: 1461838941
    nsecs: 229401084
  frame_id: world
pose: 
  position: 
    x: 0.0346989259124
    y: -0.0793024227023
    z: 0.87490260601
  orientation: 
    x: -0.00518216798082
    y: 0.000814635772258
    z: -0.00242359843105
    w: 0.999983310699
---
header: 
  seq: 16764
  stamp: 
    secs: 1461838941
    nsecs: 239507278
  frame_id: world
pose: 
  position: 
    x: 0.0347169525921
    y: -0.0791179686785
    z: 0.874838650227
  orientation: 
    x: -0.00553397694603
    y: 0.000825734983664
    z: -0.00299056991935
    w: 0.999979913235
---
header: 
  seq: 16765
  stamp: 
    secs: 1461838941
    nsecs: 249662848
  frame_id: world
pose: 
  position: 
    x: 0.0346970185637
    y: -0.079227283597
    z: 0.87490272522
  orientation: 
    x: -0.00534354289994
    y: 0.000837228144519
    z: -0.00231523439288
    w: 0.999982774258
---
header: 
  seq: 16766
  stamp: 
    secs: 1461838941
    nsecs: 259375838
  frame_id: world
pose: 
  position: 
    x: 0.0347710214555
    y: -0.079217620194
    z: 0.874837338924
  orientation: 
    x: -0.00373169546947
    y: 0.000942259910516
    z: -0.00289764907211
    w: 0.999988377094
---
header: 
  seq: 16767
  stamp: 
    secs: 1461838941
    nsecs: 269655914
  frame_id: world
pose: 
  position: 
    x: 0.0347586758435
    y: -0.0792833939195
    z: 0.874937355518
  orientation: 
    x: -0.00589134125039
    y: 0.000448481878266
    z: -0.00217759748921
    w: 0.999980270863
---
header: 
  seq: 16768
  stamp: 
    secs: 1461838941
    nsecs: 279586974
  frame_id: world
pose: 
  position: 
    x: 0.0347624868155
    y: -0.0793247371912
    z: 0.874915122986
  orientation: 
    x: -0.00521194003522
    y: 0.000611021008808
    z: -0.00204775924794
    w: 0.999984145164
---
header: 
  seq: 16769
  stamp: 
    secs: 1461838941
    nsecs: 289439820
  frame_id: world
pose: 
  position: 
    x: 0.034887354821
    y: -0.0791963562369
    z: 0.874822020531
  orientation: 
    x: -0.00446839118376
    y: 0.000559323176276
    z: -0.00179468595888
    w: 0.99998831749
---
header: 
  seq: 16770
  stamp: 
    secs: 1461838941
    nsecs: 299575072
  frame_id: world
pose: 
  position: 
    x: 0.0347142256796
    y: -0.0793049484491
    z: 0.874912559986
  orientation: 
    x: -0.00530431326479
    y: 0.000961890968028
    z: -0.000915612850804
    w: 0.999985039234
---
header: 
  seq: 16771
  stamp: 
    secs: 1461838941
    nsecs: 309513613
  frame_id: world
pose: 
  position: 
    x: 0.0347698666155
    y: -0.0792178213596
    z: 0.874893903732
  orientation: 
    x: -0.00583487376571
    y: 0.000187021316378
    z: -0.00208607735112
    w: 0.999980807304
---
header: 
  seq: 16772
  stamp: 
    secs: 1461838941
    nsecs: 319506465
  frame_id: world
pose: 
  position: 
    x: 0.0347958020866
    y: -0.0792151987553
    z: 0.87474656105
  orientation: 
    x: -0.00507953437045
    y: 0.00173330982216
    z: -0.0013816395076
    w: 0.999984741211
---
header: 
  seq: 16773
  stamp: 
    secs: 1461838941
    nsecs: 329726742
  frame_id: world
pose: 
  position: 
    x: 0.0347922109067
    y: -0.0793509334326
    z: 0.874885618687
  orientation: 
    x: -0.00525633711368
    y: 0.00036172036198
    z: -0.00137710722629
    w: 0.999985218048
---
header: 
  seq: 16774
  stamp: 
    secs: 1461838941
    nsecs: 339686966
  frame_id: world
pose: 
  position: 
    x: 0.0348252654076
    y: -0.0792957916856
    z: 0.874939978123
  orientation: 
    x: -0.00590813718736
    y: 0.000281415355857
    z: -0.00293565820903
    w: 0.999978244305
---
header: 
  seq: 16775
  stamp: 
    secs: 1461838941
    nsecs: 349461961
  frame_id: world
pose: 
  position: 
    x: 0.0348220318556
    y: -0.0792304500937
    z: 0.874925732613
  orientation: 
    x: -0.00553588150069
    y: 0.000614314980339
    z: -0.00154509290587
    w: 0.999983370304
---
header: 
  seq: 16776
  stamp: 
    secs: 1461838941
    nsecs: 359434059
  frame_id: world
pose: 
  position: 
    x: 0.0347404591739
    y: -0.0793267413974
    z: 0.874645292759
  orientation: 
    x: -0.00277788913809
    y: 0.0021828643512
    z: -0.00279520917684
    w: 0.99998986721
---
header: 
  seq: 16777
  stamp: 
    secs: 1461838941
    nsecs: 369766803
  frame_id: world
pose: 
  position: 
    x: 0.0347710289061
    y: -0.0793052464724
    z: 0.874650061131
  orientation: 
    x: -0.00213160458952
    y: 0.00311295012943
    z: -0.00247476412915
    w: 0.99998986721
---
header: 
  seq: 16778
  stamp: 
    secs: 1461838941
    nsecs: 379573397
  frame_id: world
pose: 
  position: 
    x: 0.034847445786
    y: -0.0791619569063
    z: 0.87482625246
  orientation: 
    x: -0.00424501206726
    y: 0.000707394385245
    z: -0.00224581710063
    w: 0.999988257885
---
header: 
  seq: 16779
  stamp: 
    secs: 1461838941
    nsecs: 389419135
  frame_id: world
pose: 
  position: 
    x: 0.0347895026207
    y: -0.0792366042733
    z: 0.874898135662
  orientation: 
    x: -0.0058774529025
    y: 0.000842351233587
    z: -0.00160151335876
    w: 0.999981105328
---
header: 
  seq: 16780
  stamp: 
    secs: 1461838941
    nsecs: 399890053
  frame_id: world
pose: 
  position: 
    x: 0.0347200892866
    y: -0.0793040543795
    z: 0.87488168478
  orientation: 
    x: -0.00501755159348
    y: 0.000419295422034
    z: -0.00261027971283
    w: 0.999983906746
---
header: 
  seq: 16781
  stamp: 
    secs: 1461838941
    nsecs: 409536521
  frame_id: world
pose: 
  position: 
    x: 0.034798823297
    y: -0.0792042538524
    z: 0.874900102615
  orientation: 
    x: -0.00516741489992
    y: 0.000346128770616
    z: -0.00201787496917
    w: 0.999984562397
---
header: 
  seq: 16782
  stamp: 
    secs: 1461838941
    nsecs: 419649226
  frame_id: world
pose: 
  position: 
    x: 0.0348031297326
    y: -0.0794036611915
    z: 0.874888896942
  orientation: 
    x: -0.005740522407
    y: 0.000204967305763
    z: -0.000975344912149
    w: 0.999983072281
---
header: 
  seq: 16783
  stamp: 
    secs: 1461838941
    nsecs: 429686187
  frame_id: world
pose: 
  position: 
    x: 0.0347367823124
    y: -0.0791408643126
    z: 0.874864459038
  orientation: 
    x: -0.00491217290983
    y: 0.000340512633557
    z: -0.00230515748262
    w: 0.999985218048
---
header: 
  seq: 16784
  stamp: 
    secs: 1461838941
    nsecs: 439535220
  frame_id: world
pose: 
  position: 
    x: 0.0347088500857
    y: -0.0793130993843
    z: 0.874574303627
  orientation: 
    x: -0.00154464284424
    y: 0.00273853144608
    z: -0.0024713918101
    w: 0.999992012978
---
header: 
  seq: 16785
  stamp: 
    secs: 1461838941
    nsecs: 449479277
  frame_id: world
pose: 
  position: 
    x: 0.0347691699862
    y: -0.0791082680225
    z: 0.87477773428
  orientation: 
    x: -0.00328379729763
    y: 0.00132563372608
    z: -0.0015251331497
    w: 0.999992609024
---
header: 
  seq: 16786
  stamp: 
    secs: 1461838941
    nsecs: 459588084
  frame_id: world
pose: 
  position: 
    x: 0.0347461588681
    y: -0.0790934711695
    z: 0.874786317348
  orientation: 
    x: -0.00523600028828
    y: 0.000989745487459
    z: -0.00255918642506
    w: 0.999982535839
---
header: 
  seq: 16787
  stamp: 
    secs: 1461838941
    nsecs: 469615086
  frame_id: world
pose: 
  position: 
    x: 0.0347504355013
    y: -0.0793166309595
    z: 0.874681591988
  orientation: 
    x: -0.00254480540752
    y: 0.00222036545165
    z: -0.00289935083129
    w: 0.999990165234
---
header: 
  seq: 16788
  stamp: 
    secs: 1461838941
    nsecs: 479708980
  frame_id: world
pose: 
  position: 
    x: 0.034755077213
    y: -0.0791974440217
    z: 0.874890565872
  orientation: 
    x: -0.00545120472088
    y: 0.00056143529946
    z: -0.00165120966267
    w: 0.999983608723
---
header: 
  seq: 16789
  stamp: 
    secs: 1461838941
    nsecs: 489495252
  frame_id: world
pose: 
  position: 
    x: 0.03480912745
    y: -0.0791744962335
    z: 0.874952733517
  orientation: 
    x: -0.00492716860026
    y: 0.00119543203618
    z: -0.00182033097371
    w: 0.999985575676
---
header: 
  seq: 16790
  stamp: 
    secs: 1461838941
    nsecs: 499446252
  frame_id: world
pose: 
  position: 
    x: 0.034782461822
    y: -0.0792315155268
    z: 0.874522686005
  orientation: 
    x: -0.000952943752054
    y: 0.00332939485088
    z: -0.00258988677524
    w: 0.999990701675
---
header: 
  seq: 16791
  stamp: 
    secs: 1461838941
    nsecs: 509500201
  frame_id: world
pose: 
  position: 
    x: 0.0347918383777
    y: -0.0793913304806
    z: 0.874754309654
  orientation: 
    x: -0.00411131186411
    y: 0.000811237609014
    z: -0.00236311624758
    w: 0.999988496304
---
header: 
  seq: 16792
  stamp: 
    secs: 1461838941
    nsecs: 519648158
  frame_id: world
pose: 
  position: 
    x: 0.0347661413252
    y: -0.079281643033
    z: 0.874655842781
  orientation: 
    x: -0.00221892585978
    y: 0.00208296556957
    z: -0.00183612422552
    w: 0.999993681908
---
header: 
  seq: 16793
  stamp: 
    secs: 1461838941
    nsecs: 529621998
  frame_id: world
pose: 
  position: 
    x: 0.0348218791187
    y: -0.0792612209916
    z: 0.874632775784
  orientation: 
    x: -0.00258535635658
    y: 0.00263770483434
    z: -0.00210310611874
    w: 0.999990999699
---
header: 
  seq: 16794
  stamp: 
    secs: 1461838941
    nsecs: 539514576
  frame_id: world
pose: 
  position: 
    x: 0.0347951352596
    y: -0.0791193544865
    z: 0.874758601189
  orientation: 
    x: -0.00406292779371
    y: 0.0015332599869
    z: -0.00119333469775
    w: 0.999989926815
---
header: 
  seq: 16795
  stamp: 
    secs: 1461838941
    nsecs: 549544769
  frame_id: world
pose: 
  position: 
    x: 0.034764200449
    y: -0.0792381390929
    z: 0.874916672707
  orientation: 
    x: -0.00575318001211
    y: 0.000521760841366
    z: -0.00179091549944
    w: 0.999981701374
---
header: 
  seq: 16796
  stamp: 
    secs: 1461838941
    nsecs: 559650296
  frame_id: world
pose: 
  position: 
    x: 0.0346904098988
    y: -0.0793603658676
    z: 0.874923050404
  orientation: 
    x: -0.00518585788086
    y: 0.00059287721524
    z: -0.00299822282977
    w: 0.999981880188
---
header: 
  seq: 16797
  stamp: 
    secs: 1461838941
    nsecs: 569438660
  frame_id: world
pose: 
  position: 
    x: 0.0347042046487
    y: -0.0792939737439
    z: 0.874698698521
  orientation: 
    x: -0.00244809384458
    y: 0.00216549285688
    z: -0.00312669598497
    w: 0.999989748001
---
header: 
  seq: 16798
  stamp: 
    secs: 1461838941
    nsecs: 579600686
  frame_id: world
pose: 
  position: 
    x: 0.0347463786602
    y: -0.0792921632528
    z: 0.874930679798
  orientation: 
    x: -0.00440802657977
    y: 0.000535972649232
    z: -0.00239969580434
    w: 0.999987244606
---
header: 
  seq: 16799
  stamp: 
    secs: 1461838941
    nsecs: 589664458
  frame_id: world
pose: 
  position: 
    x: 0.0347764678299
    y: -0.0791754573584
    z: 0.874802708626
  orientation: 
    x: -0.00325063616037
    y: 0.00137681711931
    z: -0.0015677397605
    w: 0.999992609024
---
header: 
  seq: 16800
  stamp: 
    secs: 1461838941
    nsecs: 599530940
  frame_id: world
pose: 
  position: 
    x: 0.0347297303379
    y: -0.0793084204197
    z: 0.874760389328
  orientation: 
    x: -0.00515164481476
    y: 0.00173643603921
    z: -0.00240698130801
    w: 0.999982357025
---
header: 
  seq: 16801
  stamp: 
    secs: 1461838941
    nsecs: 609610341
  frame_id: world
pose: 
  position: 
    x: 0.034770168364
    y: -0.0793181359768
    z: 0.874862313271
  orientation: 
    x: -0.00496837636456
    y: 0.000528118631337
    z: -0.00217320467345
    w: 0.999985218048
---
header: 
  seq: 16802
  stamp: 
    secs: 1461838941
    nsecs: 619505186
  frame_id: world
pose: 
  position: 
    x: 0.0346744805574
    y: -0.0793611481786
    z: 0.874844551086
  orientation: 
    x: -0.0043728183955
    y: 0.000796893262304
    z: -0.00103193183895
    w: 0.999989628792
---
header: 
  seq: 16803
  stamp: 
    secs: 1461838941
    nsecs: 629560945
  frame_id: world
pose: 
  position: 
    x: 0.0347283817828
    y: -0.0792185813189
    z: 0.87476682663
  orientation: 
    x: -0.00413135811687
    y: 0.000841931672767
    z: -0.00183458160609
    w: 0.999989509583
---
header: 
  seq: 16804
  stamp: 
    secs: 1461838941
    nsecs: 639343469
  frame_id: world
pose: 
  position: 
    x: 0.0347993895411
    y: -0.0793597474694
    z: 0.87487000227
  orientation: 
    x: -0.00535586802289
    y: 0.000525701849256
    z: -0.00280012143776
    w: 0.999981641769
---
header: 
  seq: 16805
  stamp: 
    secs: 1461838941
    nsecs: 649680117
  frame_id: world
pose: 
  position: 
    x: 0.0346209518611
    y: -0.0792729482055
    z: 0.874885678291
  orientation: 
    x: -0.00431397696957
    y: 0.000977503834292
    z: -0.00169849314261
    w: 0.999988853931
---
header: 
  seq: 16806
  stamp: 
    secs: 1461838941
    nsecs: 659451571
  frame_id: world
pose: 
  position: 
    x: 0.0346550606191
    y: -0.0793062150478
    z: 0.874708414078
  orientation: 
    x: -0.00276010576636
    y: 0.00207620300353
    z: -0.00268115708604
    w: 0.999990463257
---
header: 
  seq: 16807
  stamp: 
    secs: 1461838941
    nsecs: 669496709
  frame_id: world
pose: 
  position: 
    x: 0.034698817879
    y: -0.0792778357863
    z: 0.874715745449
  orientation: 
    x: -0.00279281870462
    y: 0.00224086921662
    z: -0.00298210163601
    w: 0.999989211559
---
header: 
  seq: 16808
  stamp: 
    secs: 1461838941
    nsecs: 679662201
  frame_id: world
pose: 
  position: 
    x: 0.0347924530506
    y: -0.0793457701802
    z: 0.874944031239
  orientation: 
    x: -0.0056667169556
    y: 0.000289505376713
    z: -0.00244597345591
    w: 0.999980986118
---
header: 
  seq: 16809
  stamp: 
    secs: 1461838941
    nsecs: 689517507
  frame_id: world
pose: 
  position: 
    x: 0.0347166098654
    y: -0.07932587713
    z: 0.874641060829
  orientation: 
    x: -0.00246419780888
    y: 0.00251381029375
    z: -0.00281611504033
    w: 0.99998986721
---
header: 
  seq: 16810
  stamp: 
    secs: 1461838941
    nsecs: 699730236
  frame_id: world
pose: 
  position: 
    x: 0.0347828492522
    y: -0.0791875720024
    z: 0.874795377254
  orientation: 
    x: -0.00436275312677
    y: 0.000812353217043
    z: -0.0025660705287
    w: 0.999986886978
---
header: 
  seq: 16811
  stamp: 
    secs: 1461838941
    nsecs: 709571124
  frame_id: world
pose: 
  position: 
    x: 0.0347950793803
    y: -0.0791996046901
    z: 0.874812781811
  orientation: 
    x: -0.00459610531107
    y: 0.00116980203893
    z: -0.00187262136023
    w: 0.999987065792
---
header: 
  seq: 16812
  stamp: 
    secs: 1461838941
    nsecs: 719473372
  frame_id: world
pose: 
  position: 
    x: 0.0347167849541
    y: -0.079297862947
    z: 0.874901890755
  orientation: 
    x: -0.00566110992804
    y: 0.000493344035931
    z: -0.00319345411845
    w: 0.999978840351
---
header: 
  seq: 16813
  stamp: 
    secs: 1461838941
    nsecs: 729765028
  frame_id: world
pose: 
  position: 
    x: 0.0347795747221
    y: -0.0792059451342
    z: 0.87484806776
  orientation: 
    x: -0.00401692232117
    y: 0.000850659445859
    z: -0.00225833104923
    w: 0.99998909235
---
header: 
  seq: 16814
  stamp: 
    secs: 1461838941
    nsecs: 739479087
  frame_id: world
pose: 
  position: 
    x: 0.0348473191261
    y: -0.0793632343411
    z: 0.874926567078
  orientation: 
    x: -0.00520820496604
    y: 0.000708017032593
    z: -0.00266815233044
    w: 0.999982714653
---
header: 
  seq: 16815
  stamp: 
    secs: 1461838941
    nsecs: 749446578
  frame_id: world
pose: 
  position: 
    x: 0.0347503349185
    y: -0.0792275667191
    z: 0.874821186066
  orientation: 
    x: -0.00406274106354
    y: 0.00117218878586
    z: -0.00230205035768
    w: 0.999988496304
---
header: 
  seq: 16816
  stamp: 
    secs: 1461838941
    nsecs: 759606216
  frame_id: world
pose: 
  position: 
    x: 0.0347078815103
    y: -0.0792691633105
    z: 0.874725580215
  orientation: 
    x: -0.00260487920605
    y: 0.00189104769379
    z: -0.00265543092974
    w: 0.999991297722
---
header: 
  seq: 16817
  stamp: 
    secs: 1461838941
    nsecs: 769575447
  frame_id: world
pose: 
  position: 
    x: 0.0348015502095
    y: -0.0792422965169
    z: 0.874864041805
  orientation: 
    x: -0.00407615955919
    y: 0.00141413742676
    z: -0.00129915075377
    w: 0.999989926815
---
header: 
  seq: 16818
  stamp: 
    secs: 1461838941
    nsecs: 779479766
  frame_id: world
pose: 
  position: 
    x: 0.0347455106676
    y: -0.079333871603
    z: 0.874928772449
  orientation: 
    x: -0.00530296936631
    y: 0.000553661084268
    z: -0.00238824891858
    w: 0.999982953072
---
header: 
  seq: 16819
  stamp: 
    secs: 1461838941
    nsecs: 789383275
  frame_id: world
pose: 
  position: 
    x: 0.0346996560693
    y: -0.0792463123798
    z: 0.874937415123
  orientation: 
    x: -0.00551445316523
    y: 0.00066231819801
    z: -0.00304065365344
    w: 0.999979972839
---
header: 
  seq: 16820
  stamp: 
    secs: 1461838941
    nsecs: 799418662
  frame_id: world
pose: 
  position: 
    x: 0.0347718298435
    y: -0.0792299956083
    z: 0.874949753284
  orientation: 
    x: -0.00624697143212
    y: 0.000304040644551
    z: -0.00237947120331
    w: 0.999977588654
---
header: 
  seq: 16821
  stamp: 
    secs: 1461838941
    nsecs: 809387748
  frame_id: world
pose: 
  position: 
    x: 0.0346505492926
    y: -0.0793339759111
    z: 0.874950647354
  orientation: 
    x: -0.00607681600377
    y: 0.000499193265568
    z: -0.00245666131377
    w: 0.999978423119
---
header: 
  seq: 16822
  stamp: 
    secs: 1461838941
    nsecs: 819498725
  frame_id: world
pose: 
  position: 
    x: 0.0346720553935
    y: -0.0791163891554
    z: 0.874735295773
  orientation: 
    x: -0.00495465379208
    y: 0.00162479409482
    z: -0.000886987312697
    w: 0.999986112118
---
header: 
  seq: 16823
  stamp: 
    secs: 1461838941
    nsecs: 829515410
  frame_id: world
pose: 
  position: 
    x: 0.0347072817385
    y: -0.0795175358653
    z: 0.874931514263
  orientation: 
    x: -0.00581371970475
    y: 0.000157615068019
    z: -0.00170397094917
    w: 0.999981641769
---
header: 
  seq: 16824
  stamp: 
    secs: 1461838941
    nsecs: 839721562
  frame_id: world
pose: 
  position: 
    x: 0.0344813279808
    y: -0.079270683229
    z: 0.874679207802
  orientation: 
    x: -0.0028637885116
    y: 0.00119659933262
    z: -0.00293643004261
    w: 0.999990880489
---
header: 
  seq: 16825
  stamp: 
    secs: 1461838941
    nsecs: 849667531
  frame_id: world
pose: 
  position: 
    x: 0.0344120785594
    y: -0.0792904570699
    z: 0.874795079231
  orientation: 
    x: -0.00213246839121
    y: -0.00208377884701
    z: -0.0019512566505
    w: 0.999993741512
---
header: 
  seq: 16826
  stamp: 
    secs: 1461838941
    nsecs: 859752447
  frame_id: world
pose: 
  position: 
    x: 0.0345669612288
    y: -0.0792317464948
    z: 0.875222146511
  orientation: 
    x: -0.00965277478099
    y: -0.0131139978766
    z: -0.00109236966819
    w: 0.999866902828
---
header: 
  seq: 16827
  stamp: 
    secs: 1461838941
    nsecs: 869771731
  frame_id: world
pose: 
  position: 
    x: 0.033908829093
    y: -0.0792405903339
    z: 0.875353634357
  orientation: 
    x: -0.00645904708654
    y: -0.0204473510385
    z: -0.00382160302252
    w: 0.999762833118
---
header: 
  seq: 16828
  stamp: 
    secs: 1461838941
    nsecs: 879593827
  frame_id: world
pose: 
  position: 
    x: 0.033834990114
    y: -0.0793072581291
    z: 0.875673592091
  orientation: 
    x: -0.00476060854271
    y: -0.0309231150895
    z: -0.00372879905626
    w: 0.999503493309
---
header: 
  seq: 16829
  stamp: 
    secs: 1461838941
    nsecs: 889481641
  frame_id: world
pose: 
  position: 
    x: 0.0339516922832
    y: -0.0790590420365
    z: 0.875434100628
  orientation: 
    x: -0.00517273880541
    y: -0.0399002991617
    z: -0.00182733591646
    w: 0.999188661575
---
header: 
  seq: 16830
  stamp: 
    secs: 1461838941
    nsecs: 899695371
  frame_id: world
pose: 
  position: 
    x: 0.0339437462389
    y: -0.0791330933571
    z: 0.87564098835
  orientation: 
    x: -0.00345427286811
    y: -0.0475283190608
    z: -0.00254991045222
    w: 0.99886071682
---
header: 
  seq: 16831
  stamp: 
    secs: 1461838941
    nsecs: 909645285
  frame_id: world
pose: 
  position: 
    x: 0.0334709212184
    y: -0.0790551230311
    z: 0.875723898411
  orientation: 
    x: -0.00522256363183
    y: -0.0571770258248
    z: -0.00286410632543
    w: 0.99834638834
---
header: 
  seq: 16832
  stamp: 
    secs: 1461838941
    nsecs: 919722166
  frame_id: world
pose: 
  position: 
    x: 0.0334232226014
    y: -0.0791671276093
    z: 0.876009702682
  orientation: 
    x: -0.00669172871858
    y: -0.0682632476091
    z: -0.00336870551109
    w: 0.997639238834
---
header: 
  seq: 16833
  stamp: 
    secs: 1461838941
    nsecs: 929568708
  frame_id: world
pose: 
  position: 
    x: 0.0332016199827
    y: -0.0792483612895
    z: 0.876291811466
  orientation: 
    x: -0.00756500614807
    y: -0.0766151323915
    z: -0.00439768144861
    w: 0.997022390366
---
header: 
  seq: 16834
  stamp: 
    secs: 1461838941
    nsecs: 939840394
  frame_id: world
pose: 
  position: 
    x: 0.0329696312547
    y: -0.0792808607221
    z: 0.876399755478
  orientation: 
    x: -0.00645428290591
    y: -0.0867728590965
    z: -0.0046951873228
    w: 0.996196210384
---
header: 
  seq: 16835
  stamp: 
    secs: 1461838941
    nsecs: 949754196
  frame_id: world
pose: 
  position: 
    x: 0.0328945145011
    y: -0.0793061703444
    z: 0.876340925694
  orientation: 
    x: -0.00690496573225
    y: -0.0949315577745
    z: -0.0050743194297
    w: 0.995446920395
---
header: 
  seq: 16836
  stamp: 
    secs: 1461838941
    nsecs: 959408697
  frame_id: world
pose: 
  position: 
    x: 0.0324991643429
    y: -0.0791506320238
    z: 0.876508593559
  orientation: 
    x: -0.00624748179689
    y: -0.104231610894
    z: -0.00424926588312
    w: 0.994524419308
---
header: 
  seq: 16837
  stamp: 
    secs: 1461838941
    nsecs: 969795260
  frame_id: world
pose: 
  position: 
    x: 0.0324748717248
    y: -0.0790537446737
    z: 0.876733362675
  orientation: 
    x: -0.00824890006334
    y: -0.114001430571
    z: -0.00496276887134
    w: 0.993433952332
---
header: 
  seq: 16838
  stamp: 
    secs: 1461838941
    nsecs: 979653215
  frame_id: world
pose: 
  position: 
    x: 0.0322133377194
    y: -0.0792286768556
    z: 0.876670718193
  orientation: 
    x: -0.0102030839771
    y: -0.12492647022
    z: -0.00530126225203
    w: 0.99209946394
---
header: 
  seq: 16839
  stamp: 
    secs: 1461838941
    nsecs: 989644154
  frame_id: world
pose: 
  position: 
    x: 0.0320674479008
    y: -0.0792684555054
    z: 0.876649618149
  orientation: 
    x: -0.0096663152799
    y: -0.130513742566
    z: -0.00553553272039
    w: 0.991383969784
---
header: 
  seq: 16840
  stamp: 
    secs: 1461838941
    nsecs: 999715035
  frame_id: world
pose: 
  position: 
    x: 0.0318895019591
    y: -0.0791965126991
    z: 0.877125203609
  orientation: 
    x: -0.00504464330152
    y: -0.146612137556
    z: -0.0040106815286
    w: 0.9891731143
---
header: 
  seq: 16841
  stamp: 
    secs: 1461838942
    nsecs: 9689155
  frame_id: world
pose: 
  position: 
    x: 0.0317125879228
    y: -0.0792685449123
    z: 0.877097606659
  orientation: 
    x: -0.00782660581172
    y: -0.153730750084
    z: -0.00639354763553
    w: 0.988061130047
---
header: 
  seq: 16842
  stamp: 
    secs: 1461838942
    nsecs: 19686707
  frame_id: world
pose: 
  position: 
    x: 0.0315890908241
    y: -0.0788756757975
    z: 0.876992940903
  orientation: 
    x: -0.00516628939658
    y: -0.163907840848
    z: -0.00667772535235
    w: 0.986439585686
---
header: 
  seq: 16843
  stamp: 
    secs: 1461838942
    nsecs: 29960554
  frame_id: world
pose: 
  position: 
    x: 0.031112998724
    y: -0.0790185034275
    z: 0.876993358135
  orientation: 
    x: -0.00338030210696
    y: -0.171461910009
    z: -0.00563411414623
    w: 0.985168933868
---
header: 
  seq: 16844
  stamp: 
    secs: 1461838942
    nsecs: 40023824
  frame_id: world
pose: 
  position: 
    x: 0.0311502311379
    y: -0.0791156515479
    z: 0.876973211765
  orientation: 
    x: -0.000869081413839
    y: -0.180184558034
    z: -0.00389962666668
    w: 0.983624756336
---
header: 
  seq: 16845
  stamp: 
    secs: 1461838942
    nsecs: 49643257
  frame_id: world
pose: 
  position: 
    x: 0.031058255583
    y: -0.079347871244
    z: 0.877183794975
  orientation: 
    x: -0.00307576870546
    y: -0.185378864408
    z: -0.00339834182523
    w: 0.982656419277
---
header: 
  seq: 16846
  stamp: 
    secs: 1461838942
    nsecs: 59641263
  frame_id: world
pose: 
  position: 
    x: 0.0310637187213
    y: -0.0792546495795
    z: 0.876944303513
  orientation: 
    x: 0.000611901807133
    y: -0.194138929248
    z: -0.00381370563991
    w: 0.980966448784
---
header: 
  seq: 16847
  stamp: 
    secs: 1461838942
    nsecs: 69850733
  frame_id: world
pose: 
  position: 
    x: 0.0306493025273
    y: -0.0794072747231
    z: 0.877010703087
  orientation: 
    x: -0.000752658233978
    y: -0.199461773038
    z: -0.00473398389295
    w: 0.97989398241
---
header: 
  seq: 16848
  stamp: 
    secs: 1461838942
    nsecs: 79796675
  frame_id: world
pose: 
  position: 
    x: 0.0305578112602
    y: -0.0795277655125
    z: 0.877382159233
  orientation: 
    x: -0.00327455834486
    y: -0.212465405464
    z: -0.00367364706472
    w: 0.977156162262
---
header: 
  seq: 16849
  stamp: 
    secs: 1461838942
    nsecs: 89865297
  frame_id: world
pose: 
  position: 
    x: 0.0301951766014
    y: -0.079636849463
    z: 0.877262830734
  orientation: 
    x: -0.00190736399963
    y: -0.210157871246
    z: -0.00352765084244
    w: 0.977659225464
---
header: 
  seq: 16850
  stamp: 
    secs: 1461838942
    nsecs: 99607614
  frame_id: world
pose: 
  position: 
    x: 0.0301695074886
    y: -0.0795089751482
    z: 0.876898884773
  orientation: 
    x: 0.0064499322325
    y: -0.223430812359
    z: -0.00515275867656
    w: 0.97468483448
---
header: 
  seq: 16851
  stamp: 
    secs: 1461838942
    nsecs: 109784880
  frame_id: world
pose: 
  position: 
    x: 0.0302060265094
    y: -0.0798134207726
    z: 0.87669980526
  orientation: 
    x: 0.00543418386951
    y: -0.232354030013
    z: -0.00745414244011
    w: 0.972587585449
---
header: 
  seq: 16852
  stamp: 
    secs: 1461838942
    nsecs: 119650273
  frame_id: world
pose: 
  position: 
    x: 0.0296485442668
    y: -0.0798790380359
    z: 0.876721382141
  orientation: 
    x: 0.00716589484364
    y: -0.238469228148
    z: -0.00832794699818
    w: 0.971087932587
---
header: 
  seq: 16853
  stamp: 
    secs: 1461838942
    nsecs: 129460394
  frame_id: world
pose: 
  position: 
    x: 0.0291685331613
    y: -0.0794991999865
    z: 0.877454519272
  orientation: 
    x: 0.0140385618433
    y: -0.231422409415
    z: -0.0114613482729
    w: 0.972684562206
---
header: 
  seq: 16854
  stamp: 
    secs: 1461838942
    nsecs: 139433349
  frame_id: world
pose: 
  position: 
    x: 0.0297774225473
    y: -0.0789964571595
    z: 0.876410007477
  orientation: 
    x: 0.0201156642288
    y: -0.250631183386
    z: -0.00150271493476
    w: 0.967872560024
---
header: 
  seq: 16855
  stamp: 
    secs: 1461838942
    nsecs: 149766225
  frame_id: world
pose: 
  position: 
    x: 0.0291889291257
    y: -0.079843647778
    z: 0.877134382725
  orientation: 
    x: 0.0141203152016
    y: -0.260530531406
    z: -0.00561951613054
    w: 0.965346038342
---
header: 
  seq: 16856
  stamp: 
    secs: 1461838942
    nsecs: 159494076
  frame_id: world
pose: 
  position: 
    x: 0.0287470687181
    y: -0.079487606883
    z: 0.877948641777
  orientation: 
    x: 0.0210607778281
    y: -0.268702238798
    z: -0.00224202359095
    w: 0.962990403175
---
header: 
  seq: 16857
  stamp: 
    secs: 1461838942
    nsecs: 169379569
  frame_id: world
pose: 
  position: 
    x: 0.0289113409817
    y: -0.0792874246836
    z: 0.877497315407
  orientation: 
    x: 0.0251320097595
    y: -0.27066925168
    z: -0.00865462236106
    w: 0.962305366993
---
header: 
  seq: 16858
  stamp: 
    secs: 1461838942
    nsecs: 179484820
  frame_id: world
pose: 
  position: 
    x: 0.0291020702571
    y: -0.080351755023
    z: 0.876247823238
  orientation: 
    x: 0.0013312981464
    y: -0.305110096931
    z: -0.00539053743705
    w: 0.952300906181
---
header: 
  seq: 16859
  stamp: 
    secs: 1461838942
    nsecs: 189593124
  frame_id: world
pose: 
  position: 
    x: 0.0286793261766
    y: -0.0803136229515
    z: 0.876343250275
  orientation: 
    x: 0.0051760263741
    y: -0.314131826162
    z: -0.0061122640036
    w: 0.949345588684
---
header: 
  seq: 16860
  stamp: 
    secs: 1461838942
    nsecs: 199572587
  frame_id: world
pose: 
  position: 
    x: 0.0283565204591
    y: -0.0801764428616
    z: 0.87643545866
  orientation: 
    x: 0.00673554511741
    y: -0.321111500263
    z: -0.00707751791924
    w: 0.946990966797
---
header: 
  seq: 16861
  stamp: 
    secs: 1461838942
    nsecs: 209612684
  frame_id: world
pose: 
  position: 
    x: 0.0279582869262
    y: -0.0799581855536
    z: 0.876982152462
  orientation: 
    x: 0.00234232563525
    y: -0.327721714973
    z: -0.00717152422294
    w: 0.944744169712
---
header: 
  seq: 16862
  stamp: 
    secs: 1461838942
    nsecs: 219460851
  frame_id: world
pose: 
  position: 
    x: 0.0273410119116
    y: -0.0798418670893
    z: 0.877351880074
  orientation: 
    x: 0.00871752388775
    y: -0.340346246958
    z: -0.00549056380987
    w: 0.940243840218
---
header: 
  seq: 16863
  stamp: 
    secs: 1461838942
    nsecs: 229687920
  frame_id: world
pose: 
  position: 
    x: 0.0275235883892
    y: -0.0796110779047
    z: 0.877348542213
  orientation: 
    x: 0.0018555483548
    y: -0.343522161245
    z: -0.00492448732257
    w: 0.939129829407
---
header: 
  seq: 16864
  stamp: 
    secs: 1461838942
    nsecs: 239481538
  frame_id: world
pose: 
  position: 
    x: 0.0272914618254
    y: -0.0796420797706
    z: 0.877238869667
  orientation: 
    x: 0.00501240324229
    y: -0.355397671461
    z: -0.00364708295092
    w: 0.934694647789
---
header: 
  seq: 16865
  stamp: 
    secs: 1461838942
    nsecs: 249702725
  frame_id: world
pose: 
  position: 
    x: 0.026820871979
    y: -0.0795718878508
    z: 0.877280175686
  orientation: 
    x: 0.00490727974102
    y: -0.363478213549
    z: -0.00514198886231
    w: 0.931575596333
---
header: 
  seq: 16866
  stamp: 
    secs: 1461838942
    nsecs: 259554836
  frame_id: world
pose: 
  position: 
    x: 0.026780679822
    y: -0.0795721784234
    z: 0.877119481564
  orientation: 
    x: 0.00744632445276
    y: -0.379041135311
    z: -0.00377347506583
    w: 0.925342202187
---
header: 
  seq: 16867
  stamp: 
    secs: 1461838942
    nsecs: 269464986
  frame_id: world
pose: 
  position: 
    x: 0.0262201409787
    y: -0.0798460543156
    z: 0.876705229282
  orientation: 
    x: 0.0145102916285
    y: -0.388706326485
    z: -0.000744459277485
    w: 0.921247184277
---
header: 
  seq: 16868
  stamp: 
    secs: 1461838942
    nsecs: 279565527
  frame_id: world
pose: 
  position: 
    x: 0.0259965080768
    y: -0.080066844821
    z: 0.876652956009
  orientation: 
    x: 0.0126036023721
    y: -0.398339658976
    z: -0.000246765906923
    w: 0.917151451111
---
header: 
  seq: 16869
  stamp: 
    secs: 1461838942
    nsecs: 289412180
  frame_id: world
pose: 
  position: 
    x: 0.0261715613306
    y: -0.0794169455767
    z: 0.876867651939
  orientation: 
    x: 0.00558070745319
    y: -0.395835340023
    z: -0.00635561719537
    w: 0.918282568455
---
header: 
  seq: 16870
  stamp: 
    secs: 1461838942
    nsecs: 299579882
  frame_id: world
pose: 
  position: 
    x: 0.0262184198946
    y: -0.0801718086004
    z: 0.876017689705
  orientation: 
    x: 0.016123726964
    y: -0.407890170813
    z: -0.00372317084111
    w: 0.912881076336
---
header: 
  seq: 16871
  stamp: 
    secs: 1461838942
    nsecs: 309362905
  frame_id: world
pose: 
  position: 
    x: 0.0253834277391
    y: -0.0801864266396
    z: 0.876173377037
  orientation: 
    x: 0.0138678774238
    y: -0.418431431055
    z: -0.00576141988859
    w: 0.908124268055
---
header: 
  seq: 16872
  stamp: 
    secs: 1461838942
    nsecs: 319651853
  frame_id: world
pose: 
  position: 
    x: 0.0253064408898
    y: -0.0798766762018
    z: 0.876246571541
  orientation: 
    x: 0.00884692557156
    y: -0.427206814289
    z: -0.005752958823
    w: 0.904092371464
---
header: 
  seq: 16873
  stamp: 
    secs: 1461838942
    nsecs: 329563384
  frame_id: world
pose: 
  position: 
    x: 0.0252040848136
    y: -0.0801245942712
    z: 0.875841736794
  orientation: 
    x: 0.00717093516141
    y: -0.434781700373
    z: -0.00696729589254
    w: 0.900480389595
---
header: 
  seq: 16874
  stamp: 
    secs: 1461838942
    nsecs: 339343988
  frame_id: world
pose: 
  position: 
    x: 0.0254996400326
    y: -0.0799922719598
    z: 0.875498890877
  orientation: 
    x: 0.0130757205188
    y: -0.444002956152
    z: -0.00363252335228
    w: 0.895922541618
---
header: 
  seq: 16875
  stamp: 
    secs: 1461838942
    nsecs: 349516613
  frame_id: world
pose: 
  position: 
    x: 0.0253314282745
    y: -0.0800552368164
    z: 0.875441193581
  orientation: 
    x: 0.0139268152416
    y: -0.45382809639
    z: -0.00125152803957
    w: 0.890979528427
---
header: 
  seq: 16876
  stamp: 
    secs: 1461838942
    nsecs: 359317586
  frame_id: world
pose: 
  position: 
    x: 0.0252629444003
    y: -0.0800068378448
    z: 0.875462770462
  orientation: 
    x: 0.0123600196093
    y: -0.453544080257
    z: -0.00256149657071
    w: 0.891144454479
---
header: 
  seq: 16877
  stamp: 
    secs: 1461838942
    nsecs: 369670851
  frame_id: world
pose: 
  position: 
    x: 0.0249602030963
    y: -0.079880207777
    z: 0.875772953033
  orientation: 
    x: 0.0116476528347
    y: -0.458776205778
    z: -0.00239352392964
    w: 0.888472259045
---
header: 
  seq: 16878
  stamp: 
    secs: 1461838942
    nsecs: 379517898
  frame_id: world
pose: 
  position: 
    x: 0.0249246060848
    y: -0.0799266248941
    z: 0.875753939152
  orientation: 
    x: 0.0111539801583
    y: -0.457470059395
    z: -0.00318271340802
    w: 0.889149367809
---
header: 
  seq: 16879
  stamp: 
    secs: 1461838942
    nsecs: 389363915
  frame_id: world
pose: 
  position: 
    x: 0.0250125899911
    y: -0.079898186028
    z: 0.875709950924
  orientation: 
    x: 0.0118484729901
    y: -0.456660956144
    z: -0.00285362405702
    w: 0.889557301998
---
header: 
  seq: 16880
  stamp: 
    secs: 1461838942
    nsecs: 399654524
  frame_id: world
pose: 
  position: 
    x: 0.0249693673104
    y: -0.0798824131489
    z: 0.875497996807
  orientation: 
    x: 0.0120821166784
    y: -0.451002627611
    z: -0.00472849467769
    w: 0.892428338528
---
header: 
  seq: 16881
  stamp: 
    secs: 1461838942
    nsecs: 409693563
  frame_id: world
pose: 
  position: 
    x: 0.0254643149674
    y: -0.0799955949187
    z: 0.875533103943
  orientation: 
    x: 0.0129443639889
    y: -0.444415926933
    z: -0.00350276590325
    w: 0.895720183849
---
header: 
  seq: 16882
  stamp: 
    secs: 1461838942
    nsecs: 419494089
  frame_id: world
pose: 
  position: 
    x: 0.0251301340759
    y: -0.0801426917315
    z: 0.875767230988
  orientation: 
    x: 0.00669021345675
    y: -0.436220437288
    z: -0.00775969121605
    w: 0.899781525135
---
header: 
  seq: 16883
  stamp: 
    secs: 1461838942
    nsecs: 429351971
  frame_id: world
pose: 
  position: 
    x: 0.0253201145679
    y: -0.0799358487129
    z: 0.876215219498
  orientation: 
    x: 0.00959713384509
    y: -0.427817761898
    z: -0.00568214338273
    w: 0.903796195984
---
header: 
  seq: 16884
  stamp: 
    secs: 1461838942
    nsecs: 439511930
  frame_id: world
pose: 
  position: 
    x: 0.0252884980291
    y: -0.0797085985541
    z: 0.876544952393
  orientation: 
    x: 0.00728220073506
    y: -0.412455320358
    z: -0.00852546095848
    w: 0.910908818245
---
header: 
  seq: 16885
  stamp: 
    secs: 1461838942
    nsecs: 449429677
  frame_id: world
pose: 
  position: 
    x: 0.0260785054415
    y: -0.0802125707269
    z: 0.875925540924
  orientation: 
    x: 0.0161773748696
    y: -0.408657699823
    z: -0.00371638010256
    w: 0.912536799908
---
header: 
  seq: 16886
  stamp: 
    secs: 1461838942
    nsecs: 459461404
  frame_id: world
pose: 
  position: 
    x: 0.0265176147223
    y: -0.079889908433
    z: 0.875893414021
  orientation: 
    x: 0.0156381726265
    y: -0.397393018007
    z: -0.00596390897408
    w: 0.917495846748
---
header: 
  seq: 16887
  stamp: 
    secs: 1461838942
    nsecs: 469375305
  frame_id: world
pose: 
  position: 
    x: 0.026206035167
    y: -0.0799213647842
    z: 0.8761023283
  orientation: 
    x: 0.0105500649661
    y: -0.39349603653
    z: -0.00149861944374
    w: 0.919264614582
---
header: 
  seq: 16888
  stamp: 
    secs: 1461838942
    nsecs: 479411152
  frame_id: world
pose: 
  position: 
    x: 0.0263371616602
    y: -0.0800091326237
    z: 0.876756191254
  orientation: 
    x: 0.0111763458699
    y: -0.38598766923
    z: -0.00105388788506
    w: 0.922435641289
---
header: 
  seq: 16889
  stamp: 
    secs: 1461838942
    nsecs: 489390900
  frame_id: world
pose: 
  position: 
    x: 0.0268949568272
    y: -0.0796340182424
    z: 0.877069890499
  orientation: 
    x: 0.00724715040997
    y: -0.375665724277
    z: -0.00481576938182
    w: 0.926714360714
---
header: 
  seq: 16890
  stamp: 
    secs: 1461838942
    nsecs: 499421511
  frame_id: world
pose: 
  position: 
    x: 0.0268919244409
    y: -0.0795473307371
    z: 0.877257466316
  orientation: 
    x: 0.0046065505594
    y: -0.362738758326
    z: -0.00517063168809
    w: 0.931865155697
---
header: 
  seq: 16891
  stamp: 
    secs: 1461838942
    nsecs: 509817942
  frame_id: world
pose: 
  position: 
    x: 0.027258682996
    y: -0.07960473001
    z: 0.877380907536
  orientation: 
    x: 0.00213533942588
    y: -0.354143381119
    z: -0.00394700607285
    w: 0.935180366039
---
header: 
  seq: 16892
  stamp: 
    secs: 1461838942
    nsecs: 519521646
  frame_id: world
pose: 
  position: 
    x: 0.0275002475828
    y: -0.0796130821109
    z: 0.877281606197
  orientation: 
    x: 0.00125353189651
    y: -0.344021081924
    z: -0.00489126890898
    w: 0.938948333263
---
header: 
  seq: 16893
  stamp: 
    secs: 1461838942
    nsecs: 529470069
  frame_id: world
pose: 
  position: 
    x: 0.0274596586823
    y: -0.0797179117799
    z: 0.877017617226
  orientation: 
    x: 0.00675803003833
    y: -0.341581851244
    z: -0.00172656774521
    w: 0.939826190472
---
header: 
  seq: 16894
  stamp: 
    secs: 1461838942
    nsecs: 539538617
  frame_id: world
pose: 
  position: 
    x: 0.027586473152
    y: -0.0800148695707
    z: 0.877090454102
  orientation: 
    x: 0.00248901429586
    y: -0.334021866322
    z: -0.00373410433531
    w: 0.942554652691
---
header: 
  seq: 16895
  stamp: 
    secs: 1461838942
    nsecs: 549589539
  frame_id: world
pose: 
  position: 
    x: 0.0282165072858
    y: -0.0801755040884
    z: 0.87647485733
  orientation: 
    x: 0.00660193199292
    y: -0.320561140776
    z: -0.00720892846584
    w: 0.947177410126
---
header: 
  seq: 16896
  stamp: 
    secs: 1461838942
    nsecs: 559632293
  frame_id: world
pose: 
  position: 
    x: 0.028474945575
    y: -0.0801784843206
    z: 0.876442849636
  orientation: 
    x: 0.00625152001157
    y: -0.312624245882
    z: -0.00750516401604
    w: 0.949826657772
---
header: 
  seq: 16897
  stamp: 
    secs: 1461838942
    nsecs: 569460057
  frame_id: world
pose: 
  position: 
    x: 0.028651451692
    y: -0.0802729651332
    z: 0.876474678516
  orientation: 
    x: 0.00260727293789
    y: -0.305614650249
    z: -0.00534750334918
    w: 0.952136695385
---
header: 
  seq: 16898
  stamp: 
    secs: 1461838942
    nsecs: 579653827
  frame_id: world
pose: 
  position: 
    x: 0.0290483310819
    y: -0.0801750123501
    z: 0.876268386841
  orientation: 
    x: -0.000961399811786
    y: -0.292967557907
    z: -0.00669599277899
    w: 0.956098496914
---
header: 
  seq: 16899
  stamp: 
    secs: 1461838942
    nsecs: 589507458
  frame_id: world
pose: 
  position: 
    x: 0.0292282998562
    y: -0.0800975188613
    z: 0.876565694809
  orientation: 
    x: -0.000321110303048
    y: -0.285124480724
    z: -0.00440143607557
    w: 0.958480358124
---
header: 
  seq: 16900
  stamp: 
    secs: 1461838942
    nsecs: 599819576
  frame_id: world
pose: 
  position: 
    x: 0.029230825603
    y: -0.079929895699
    z: 0.876771092415
  orientation: 
    x: 0.00619487278163
    y: -0.267989814281
    z: -0.00487841386348
    w: 0.963389515877
---
header: 
  seq: 16901
  stamp: 
    secs: 1461838942
    nsecs: 609754553
  frame_id: world
pose: 
  position: 
    x: 0.0293496642262
    y: -0.0786519646645
    z: 0.876318871975
  orientation: 
    x: 0.0110681122169
    y: -0.250448346138
    z: -0.00526999495924
    w: 0.968052327633
---
header: 
  seq: 16902
  stamp: 
    secs: 1461838942
    nsecs: 619632575
  frame_id: world
pose: 
  position: 
    x: 0.029502870515
    y: -0.0795358493924
    z: 0.87646484375
  orientation: 
    x: 0.00818087905645
    y: -0.244399532676
    z: -0.00488979555666
    w: 0.969627797604
---
header: 
  seq: 16903
  stamp: 
    secs: 1461838942
    nsecs: 629626146
  frame_id: world
pose: 
  position: 
    x: 0.0298704504967
    y: -0.0799608156085
    z: 0.87662756443
  orientation: 
    x: 0.00520051736385
    y: -0.238703131676
    z: -0.00756949326023
    w: 0.971049189568
---
header: 
  seq: 16904
  stamp: 
    secs: 1461838942
    nsecs: 639637192
  frame_id: world
pose: 
  position: 
    x: 0.0304724294692
    y: -0.0797000825405
    z: 0.876580774784
  orientation: 
    x: 0.00760855758563
    y: -0.227490633726
    z: -0.00389082077891
    w: 0.97374278307
---
header: 
  seq: 16905
  stamp: 
    secs: 1461838942
    nsecs: 649647631
  frame_id: world
pose: 
  position: 
    x: 0.0299971811473
    y: -0.079386562109
    z: 0.877253830433
  orientation: 
    x: -0.000608027679846
    y: -0.218709200621
    z: -0.00354128913023
    w: 0.975783526897
---
header: 
  seq: 16906
  stamp: 
    secs: 1461838942
    nsecs: 659720460
  frame_id: world
pose: 
  position: 
    x: 0.030386287719
    y: -0.0794189050794
    z: 0.877291798592
  orientation: 
    x: -0.00336913764477
    y: -0.211200371385
    z: -0.00510921748355
    w: 0.977423727512
---
header: 
  seq: 16907
  stamp: 
    secs: 1461838942
    nsecs: 669641853
  frame_id: world
pose: 
  position: 
    x: 0.0307420548052
    y: -0.0794441699982
    z: 0.877133846283
  orientation: 
    x: -0.00159706082195
    y: -0.200684323907
    z: -0.00428155809641
    w: 0.979645371437
---
header: 
  seq: 16908
  stamp: 
    secs: 1461838942
    nsecs: 679787824
  frame_id: world
pose: 
  position: 
    x: 0.0310310628265
    y: -0.0794634371996
    z: 0.877169728279
  orientation: 
    x: -0.00411341246217
    y: -0.186562344432
    z: -0.00447677448392
    w: 0.98242431879
---
header: 
  seq: 16909
  stamp: 
    secs: 1461838942
    nsecs: 689773729
  frame_id: world
pose: 
  position: 
    x: 0.0310400109738
    y: -0.0793451815844
    z: 0.877261757851
  orientation: 
    x: -0.00250240578316
    y: -0.18474842608
    z: -0.00446106633171
    w: 0.98277258873
---
header: 
  seq: 16910
  stamp: 
    secs: 1461838942
    nsecs: 699514758
  frame_id: world
pose: 
  position: 
    x: 0.0310078952461
    y: -0.0791314095259
    z: 0.877224624157
  orientation: 
    x: -0.00425721332431
    y: -0.173546895385
    z: -0.00636205542833
    w: 0.984795928001
---
header: 
  seq: 16911
  stamp: 
    secs: 1461838942
    nsecs: 709498798
  frame_id: world
pose: 
  position: 
    x: 0.0312289372087
    y: -0.0793077647686
    z: 0.877052128315
  orientation: 
    x: -0.00440536858514
    y: -0.164933279157
    z: -0.0057540400885
    w: 0.986278116703
---
header: 
  seq: 16912
  stamp: 
    secs: 1461838942
    nsecs: 719524220
  frame_id: world
pose: 
  position: 
    x: 0.0317943058908
    y: -0.0795596987009
    z: 0.877178609371
  orientation: 
    x: -0.00702396733686
    y: -0.157580554485
    z: -0.00593048799783
    w: 0.987463355064
---
header: 
  seq: 16913
  stamp: 
    secs: 1461838942
    nsecs: 729420297
  frame_id: world
pose: 
  position: 
    x: 0.0316096991301
    y: -0.0795727670193
    z: 0.877382993698
  orientation: 
    x: -0.00641318922862
    y: -0.150092229247
    z: -0.00524470303208
    w: 0.988637328148
---
header: 
  seq: 16914
  stamp: 
    secs: 1461838942
    nsecs: 739622346
  frame_id: world
pose: 
  position: 
    x: 0.0316228494048
    y: -0.0796890184283
    z: 0.876994907856
  orientation: 
    x: -0.00937589816749
    y: -0.138831391931
    z: -0.0057691517286
    w: 0.990254878998
---
header: 
  seq: 16915
  stamp: 
    secs: 1461838942
    nsecs: 749891020
  frame_id: world
pose: 
  position: 
    x: 0.0321147032082
    y: -0.0793813765049
    z: 0.876761734486
  orientation: 
    x: -0.0082601737231
    y: -0.12965336442
    z: -0.00448873220012
    w: 0.991514801979
---
header: 
  seq: 16916
  stamp: 
    secs: 1461838942
    nsecs: 759888859
  frame_id: world
pose: 
  position: 
    x: 0.0322458706796
    y: -0.0794162601233
    z: 0.876784026623
  orientation: 
    x: -0.00836434774101
    y: -0.123751692474
    z: -0.00467149121687
    w: 0.992267012596
---
header: 
  seq: 16917
  stamp: 
    secs: 1461838942
    nsecs: 769544080
  frame_id: world
pose: 
  position: 
    x: 0.0324738882482
    y: -0.0792887061834
    z: 0.876810133457
  orientation: 
    x: -0.0069044586271
    y: -0.114596292377
    z: -0.0047160112299
    w: 0.993376970291
---
header: 
  seq: 16918
  stamp: 
    secs: 1461838942
    nsecs: 779548062
  frame_id: world
pose: 
  position: 
    x: 0.032453622669
    y: -0.0794639065862
    z: 0.876804351807
  orientation: 
    x: -0.00562927965075
    y: -0.107760190964
    z: -0.00428392924368
    w: 0.994151830673
---
header: 
  seq: 16919
  stamp: 
    secs: 1461838942
    nsecs: 789763507
  frame_id: world
pose: 
  position: 
    x: 0.0326885208488
    y: -0.0792644694448
    z: 0.876686215401
  orientation: 
    x: -0.00604247488081
    y: -0.0989790260792
    z: -0.00397778255865
    w: 0.995063245296
---
header: 
  seq: 16920
  stamp: 
    secs: 1461838942
    nsecs: 799574136
  frame_id: world
pose: 
  position: 
    x: 0.0329632684588
    y: -0.0793504863977
    z: 0.876610279083
  orientation: 
    x: -0.00592286745086
    y: -0.0903673693538
    z: -0.00515739480034
    w: 0.995877563953
---
header: 
  seq: 16921
  stamp: 
    secs: 1461838942
    nsecs: 809571750
  frame_id: world
pose: 
  position: 
    x: 0.0329247824848
    y: -0.0793931484222
    z: 0.876378297806
  orientation: 
    x: -0.00611761398613
    y: -0.080663241446
    z: -0.00483976164833
    w: 0.996710956097
---
header: 
  seq: 16922
  stamp: 
    secs: 1461838942
    nsecs: 819881601
  frame_id: world
pose: 
  position: 
    x: 0.0331990048289
    y: -0.0793448239565
    z: 0.876305997372
  orientation: 
    x: -0.00691854348406
    y: -0.072651900351
    z: -0.00399529607967
    w: 0.99732542038
---
header: 
  seq: 16923
  stamp: 
    secs: 1461838942
    nsecs: 829683065
  frame_id: world
pose: 
  position: 
    x: 0.0334504283965
    y: -0.0793013200164
    z: 0.875836849213
  orientation: 
    x: -0.00385155947879
    y: -0.061087731272
    z: -0.00225509470329
    w: 0.998122513294
---
header: 
  seq: 16924
  stamp: 
    secs: 1461838942
    nsecs: 839792927
  frame_id: world
pose: 
  position: 
    x: 0.0335413850844
    y: -0.0792691782117
    z: 0.87579447031
  orientation: 
    x: -0.00383484154008
    y: -0.0531537644565
    z: -0.00264206295833
    w: 0.998575508595
---
header: 
  seq: 16925
  stamp: 
    secs: 1461838942
    nsecs: 849754030
  frame_id: world
pose: 
  position: 
    x: 0.0339600369334
    y: -0.0793420001864
    z: 0.875564932823
  orientation: 
    x: -0.00287628686056
    y: -0.043097011745
    z: -0.00267353863455
    w: 0.999063253403
---
header: 
  seq: 16926
  stamp: 
    secs: 1461838942
    nsecs: 859592283
  frame_id: world
pose: 
  position: 
    x: 0.0341044589877
    y: -0.0794058442116
    z: 0.87533813715
  orientation: 
    x: -0.000832942023408
    y: -0.0326748043299
    z: -0.00168805173598
    w: 0.999464273453
---
header: 
  seq: 16927
  stamp: 
    secs: 1461838942
    nsecs: 869550665
  frame_id: world
pose: 
  position: 
    x: 0.0339293032885
    y: -0.0794595852494
    z: 0.875554144382
  orientation: 
    x: -0.00734196510166
    y: -0.0222357399762
    z: -0.0037464632187
    w: 0.999718785286
---
header: 
  seq: 16928
  stamp: 
    secs: 1461838942
    nsecs: 879767405
  frame_id: world
pose: 
  position: 
    x: 0.0342103801668
    y: -0.0797590464354
    z: 0.875089347363
  orientation: 
    x: -0.00372204883024
    y: -0.0107334246859
    z: -0.00369686749764
    w: 0.999928712845
---
header: 
  seq: 16929
  stamp: 
    secs: 1461838942
    nsecs: 889456404
  frame_id: world
pose: 
  position: 
    x: 0.0347902029753
    y: -0.0794784128666
    z: 0.874879479408
  orientation: 
    x: -0.00135529332329
    y: -0.00208516232669
    z: -0.00174121791497
    w: 0.999995410442
---
header: 
  seq: 16930
  stamp: 
    secs: 1461838942
    nsecs: 899622307
  frame_id: world
pose: 
  position: 
    x: 0.0351622402668
    y: -0.0794475153089
    z: 0.874853551388
  orientation: 
    x: -0.00418099854141
    y: 0.00443819863722
    z: -0.00248324102722
    w: 0.999978303909
---
header: 
  seq: 16931
  stamp: 
    secs: 1461838942
    nsecs: 909530823
  frame_id: world
pose: 
  position: 
    x: 0.0351558402181
    y: -0.0794097036123
    z: 0.874823689461
  orientation: 
    x: -0.00619298359379
    y: 0.0147626381367
    z: -0.00140806706622
    w: 0.999870896339
---
header: 
  seq: 16932
  stamp: 
    secs: 1461838942
    nsecs: 919863609
  frame_id: world
pose: 
  position: 
    x: 0.0353177264333
    y: -0.0794119760394
    z: 0.874931871891
  orientation: 
    x: -0.00698938081041
    y: 0.0216891113669
    z: -0.00184750952758
    w: 0.999738693237
---
header: 
  seq: 16933
  stamp: 
    secs: 1461838942
    nsecs: 929776222
  frame_id: world
pose: 
  position: 
    x: 0.0356651432812
    y: -0.079482331872
    z: 0.874820411205
  orientation: 
    x: -0.00628683157265
    y: 0.0304484665394
    z: -0.00218777288683
    w: 0.99951416254
---
header: 
  seq: 16934
  stamp: 
    secs: 1461838942
    nsecs: 939642160
  frame_id: world
pose: 
  position: 
    x: 0.0360031090677
    y: -0.0793706700206
    z: 0.874687075615
  orientation: 
    x: -0.00741377286613
    y: 0.0372743569314
    z: -0.00128103012685
    w: 0.999276816845
---
header: 
  seq: 16935
  stamp: 
    secs: 1461838942
    nsecs: 949791193
  frame_id: world
pose: 
  position: 
    x: 0.0360590852797
    y: -0.0794026628137
    z: 0.875242292881
  orientation: 
    x: -0.00780996400863
    y: 0.0341388322413
    z: -0.00287073268555
    w: 0.999382555485
---
header: 
  seq: 16936
  stamp: 
    secs: 1461838942
    nsecs: 959407741
  frame_id: world
pose: 
  position: 
    x: 0.0361973047256
    y: -0.0791842341423
    z: 0.874413371086
  orientation: 
    x: -0.00503017567098
    y: 0.0559643097222
    z: -0.000420249765739
    w: 0.998420059681
---
header: 
  seq: 16937
  stamp: 
    secs: 1461838942
    nsecs: 969601842
  frame_id: world
pose: 
  position: 
    x: 0.0362857095897
    y: -0.0793133452535
    z: 0.874234080315
  orientation: 
    x: -0.0113553311676
    y: 0.0673134475946
    z: -7.43189229979e-05
    w: 0.997667253017
---
header: 
  seq: 16938
  stamp: 
    secs: 1461838942
    nsecs: 979669839
  frame_id: world
pose: 
  position: 
    x: 0.0363544858992
    y: -0.0792884975672
    z: 0.874085009098
  orientation: 
    x: -0.00967665016651
    y: 0.0759438052773
    z: -0.000818114785943
    w: 0.997064828873
---
header: 
  seq: 16939
  stamp: 
    secs: 1461838942
    nsecs: 989547727
  frame_id: world
pose: 
  position: 
    x: 0.0364570766687
    y: -0.0793094038963
    z: 0.873940289021
  orientation: 
    x: -0.0101389875636
    y: 0.0891044959426
    z: -0.000802869966719
    w: 0.99597042799
---
header: 
  seq: 16940
  stamp: 
    secs: 1461838942
    nsecs: 999603348
  frame_id: world
pose: 
  position: 
    x: 0.0368632301688
    y: -0.0791092291474
    z: 0.873714387417
  orientation: 
    x: -0.009452059865
    y: 0.0958047807217
    z: 0.00268776458688
    w: 0.995351612568
---
header: 
  seq: 16941
  stamp: 
    secs: 1461838943
    nsecs: 9668856
  frame_id: world
pose: 
  position: 
    x: 0.036555506289
    y: -0.0783566609025
    z: 0.874438822269
  orientation: 
    x: -0.0104649038985
    y: 0.10926245153
    z: 0.000920744729228
    w: 0.993957459927
---
header: 
  seq: 16942
  stamp: 
    secs: 1461838943
    nsecs: 19627220
  frame_id: world
pose: 
  position: 
    x: 0.0370193310082
    y: -0.0787112489343
    z: 0.873397052288
  orientation: 
    x: -0.0127495322376
    y: 0.11690621078
    z: 0.00539492303506
    w: 0.993046522141
---
header: 
  seq: 16943
  stamp: 
    secs: 1461838943
    nsecs: 29548849
  frame_id: world
pose: 
  position: 
    x: 0.0368481837213
    y: -0.0790573582053
    z: 0.873391270638
  orientation: 
    x: -0.0116611439735
    y: 0.121509701014
    z: 0.00311760720797
    w: 0.992516934872
---
header: 
  seq: 16944
  stamp: 
    secs: 1461838943
    nsecs: 39911387
  frame_id: world
pose: 
  position: 
    x: 0.0369931869209
    y: -0.0790126249194
    z: 0.873398542404
  orientation: 
    x: -0.0126023218036
    y: 0.124964021146
    z: 0.00163788546342
    w: 0.992079973221
---
header: 
  seq: 16945
  stamp: 
    secs: 1461838943
    nsecs: 49710912
  frame_id: world
pose: 
  position: 
    x: 0.0369147546589
    y: -0.0791283473372
    z: 0.872838973999
  orientation: 
    x: -0.00610365066677
    y: 0.135145634413
    z: 0.000397655501729
    w: 0.990806877613
---
header: 
  seq: 16946
  stamp: 
    secs: 1461838943
    nsecs: 59832064
  frame_id: world
pose: 
  position: 
    x: 0.0372010469437
    y: -0.0794371888041
    z: 0.872287154198
  orientation: 
    x: -0.00515898969024
    y: 0.144955277443
    z: 0.000171863299329
    w: 0.989424824715
---
header: 
  seq: 16947
  stamp: 
    secs: 1461838943
    nsecs: 69750659
  frame_id: world
pose: 
  position: 
    x: 0.0371334142983
    y: -0.0793020948768
    z: 0.872059166431
  orientation: 
    x: -0.00288177165203
    y: 0.158870816231
    z: -0.00252060242929
    w: 0.987291991711
---
header: 
  seq: 16948
  stamp: 
    secs: 1461838943
    nsecs: 79734101
  frame_id: world
pose: 
  position: 
    x: 0.0372931361198
    y: -0.0794667601585
    z: 0.8720921278
  orientation: 
    x: -0.00415591150522
    y: 0.164867416024
    z: -0.00203742948361
    w: 0.986304938793
---
header: 
  seq: 16949
  stamp: 
    secs: 1461838943
    nsecs: 89779196
  frame_id: world
pose: 
  position: 
    x: 0.0372073240578
    y: -0.0795292556286
    z: 0.871719539165
  orientation: 
    x: -0.00328734144568
    y: 0.175441756845
    z: -0.000825084454846
    w: 0.984484016895
---
header: 
  seq: 16950
  stamp: 
    secs: 1461838943
    nsecs: 99799558
  frame_id: world
pose: 
  position: 
    x: 0.0372314825654
    y: -0.0794415995479
    z: 0.87174808979
  orientation: 
    x: -0.00417073303834
    y: 0.186551779509
    z: -0.0020661985036
    w: 0.982434153557
---
header: 
  seq: 16951
  stamp: 
    secs: 1461838943
    nsecs: 109590164
  frame_id: world
pose: 
  position: 
    x: 0.037248365581
    y: -0.0793243572116
    z: 0.871262669563
  orientation: 
    x: -0.00488592823967
    y: 0.200148165226
    z: -0.00356287322938
    w: 0.979747056961
---
header: 
  seq: 16952
  stamp: 
    secs: 1461838943
    nsecs: 119858093
  frame_id: world
pose: 
  position: 
    x: 0.038074310869
    y: -0.0798159688711
    z: 0.871619522572
  orientation: 
    x: -0.0109195616096
    y: 0.199504882097
    z: -0.00321715464815
    w: 0.979830741882
---
header: 
  seq: 16953
  stamp: 
    secs: 1461838943
    nsecs: 129802469
  frame_id: world
pose: 
  position: 
    x: 0.0380171611905
    y: -0.0795192942023
    z: 0.871193289757
  orientation: 
    x: -0.00958729721606
    y: 0.209732398391
    z: -0.00169540301431
    w: 0.977710425854
---
header: 
  seq: 16954
  stamp: 
    secs: 1461838943
    nsecs: 139679831
  frame_id: world
pose: 
  position: 
    x: 0.0378843657672
    y: -0.0794627219439
    z: 0.87097799778
  orientation: 
    x: -0.00450692977756
    y: 0.215768456459
    z: -0.00264524831437
    w: 0.976430654526
---
header: 
  seq: 16955
  stamp: 
    secs: 1461838943
    nsecs: 149745392
  frame_id: world
pose: 
  position: 
    x: 0.0376368425786
    y: -0.0792509540915
    z: 0.870575547218
  orientation: 
    x: -0.00770330848172
    y: 0.227802082896
    z: -0.00213528424501
    w: 0.973674654961
---
header: 
  seq: 16956
  stamp: 
    secs: 1461838943
    nsecs: 159529898
  frame_id: world
pose: 
  position: 
    x: 0.0381555370986
    y: -0.0789362937212
    z: 0.870792984962
  orientation: 
    x: -0.00954956561327
    y: 0.232818841934
    z: 0.00418046209961
    w: 0.972464263439
---
header: 
  seq: 16957
  stamp: 
    secs: 1461838943
    nsecs: 169919841
  frame_id: world
pose: 
  position: 
    x: 0.0387501940131
    y: -0.0793367549777
    z: 0.870545208454
  orientation: 
    x: -0.0129082547501
    y: 0.240310505033
    z: 0.00382254691795
    w: 0.970602750778
---
header: 
  seq: 16958
  stamp: 
    secs: 1461838943
    nsecs: 179673619
  frame_id: world
pose: 
  position: 
    x: 0.0387588664889
    y: -0.0792480111122
    z: 0.870603322983
  orientation: 
    x: -0.0122260004282
    y: 0.247720345855
    z: 0.00262684514746
    w: 0.968750953674
---
header: 
  seq: 16959
  stamp: 
    secs: 1461838943
    nsecs: 189750262
  frame_id: world
pose: 
  position: 
    x: 0.0388996526599
    y: -0.0787565261126
    z: 0.870671391487
  orientation: 
    x: -0.00834191963077
    y: 0.254889011383
    z: 0.00616887304932
    w: 0.966914713383
---
header: 
  seq: 16960
  stamp: 
    secs: 1461838943
    nsecs: 199603111
  frame_id: world
pose: 
  position: 
    x: 0.0389568917453
    y: -0.0789875686169
    z: 0.87004929781
  orientation: 
    x: -0.0106474133208
    y: 0.266495734453
    z: 0.00289845420048
    w: 0.963772952557
---
header: 
  seq: 16961
  stamp: 
    secs: 1461838943
    nsecs: 209593271
  frame_id: world
pose: 
  position: 
    x: 0.0389365702868
    y: -0.0789514183998
    z: 0.86982601881
  orientation: 
    x: -0.00958160124719
    y: 0.274205982685
    z: 0.00244616833515
    w: 0.961620151997
---
header: 
  seq: 16962
  stamp: 
    secs: 1461838943
    nsecs: 219574916
  frame_id: world
pose: 
  position: 
    x: 0.0397256426513
    y: -0.0789443328977
    z: 0.870425462723
  orientation: 
    x: -0.0173260234296
    y: 0.270465344191
    z: 0.0081417709589
    w: 0.962539374828
---
header: 
  seq: 16963
  stamp: 
    secs: 1461838943
    nsecs: 229492836
  frame_id: world
pose: 
  position: 
    x: 0.039972692728
    y: -0.0787962898612
    z: 0.870387732983
  orientation: 
    x: -0.0212354902178
    y: 0.277893394232
    z: 0.0088187046349
    w: 0.960336744785
---
header: 
  seq: 16964
  stamp: 
    secs: 1461838943
    nsecs: 239517309
  frame_id: world
pose: 
  position: 
    x: 0.0398818813264
    y: -0.0786940306425
    z: 0.870578229427
  orientation: 
    x: -0.0211745798588
    y: 0.287610143423
    z: 0.00844065379351
    w: 0.957476317883
---
header: 
  seq: 16965
  stamp: 
    secs: 1461838943
    nsecs: 249598630
  frame_id: world
pose: 
  position: 
    x: 0.0405044928193
    y: -0.0788391679525
    z: 0.870480537415
  orientation: 
    x: -0.0328492932022
    y: 0.29130089283
    z: 0.0132231963798
    w: 0.955975949764
---
header: 
  seq: 16966
  stamp: 
    secs: 1461838943
